{
    "BOG": {
        "name": "El Dorado International Airport",
        "latitude": 4.7016,
        "longitude": -74.1469,
        "city": "Bogot\u00e1",
        "international": true,
        "connections": [
            "ADZ",
            "VGZ",
            "PCR",
            "LET",
            "SVI",
            "VVC",
            "EOH",
            "BGA",
            "EJA",
            "IBE",
            "PPN",
            "IPI",
            "CUC",
            "CTG",
            "CLO",
            "AXM",
            "UIB",
            "MTR",
            "PUU",
            "EYP",
            "APO",
            "VUP",
            "BAQ",
            "PSO",
            "RCH",
            "AUC",
            "BUN",
            "FLA",
            "NVA",
            "SJE",
            "MVP",
            "MZL",
            "RVE",
            "SMR",
            "MDE",
            "TME",
            "PEI",
            "CZU",
            "PDA", 
            "CAQ",
            "LMC",
            "LMN", 
            "PGT"
        ]
    },
    "MDE": {
        "name": "Jos\u00e9 Mar\u00eda C\u00f3rdova International Airport",
        "latitude": 6.1645,
        "longitude": -75.4231,
        "city": "Medell\u00edn",
        "international": true,
        "connections": [
            "BGA",
            "CLO",
            "ADZ",
            "SMR",
            "BAQ",
            "BOG",
            "CUC",
            "CTG", 
            "GYM", 
            "LMC",
            "LMN",
            "PTX"
        ]
    },
    "CTG": {
        "name": "Rafael N\u00fa\u00f1ez International Airport",
        "latitude": 10.4424,
        "longitude": -75.513,
        "city": "Cartagena",
        "international": true,
        "connections": [
            "BOG",
            "ADZ",
            "MDE",
            "CLO"
        ]
    },
    "CLO": {
        "name": "Alfonso Bonilla Arag\u00f3n International Airport",
        "latitude": 3.5432,
        "longitude": -76.3816,
        "city": "Cali",
        "international": true,
        "connections": [
            "ADZ",
            "UIB",
            "PUU",
            "BAQ",
            "MDE",
            "PSO",
            "BOG",
            "TCO",
            "GPI",
            "CTG"
        ]
    },
    "BAQ": {
        "name": "Ernesto Cortissoz International Airport",
        "latitude": 10.8896,
        "longitude": -74.7808,
        "city": "Barranquilla",
        "international": true,
        "connections": [
            "BOG",
            "ADZ",
            "MDE",
            "CLO"
        ]
    },
    "BGA": {
        "name": "Palonegro International Airport",
        "latitude": 7.1265,
        "longitude": -73.1848,
        "city": "Bucaramanga",
        "international": true,
        "connections": [
            "BOG",
            "MDE"
        ]
    },
    "SMR": {
        "name": "Sim\u00f3n Bol\u00edvar International Airport",
        "latitude": 11.1196,
        "longitude": -74.2306,
        "city": "Santa Marta",
        "international": true,
        "connections": [
            "BOG",
            "MDE"
        ]
    },
    "ADZ": {
        "name": "Gustavo Rojas Pinilla International Airport",
        "latitude": 12.5836,
        "longitude": -81.7112,
        "city": "San Andr\u00e9s",
        "international": true,
        "connections": [
            "CLO",
            "PVA",
            "MDE",
            "BAQ",
            "PEI",
            "BOG",
            "CTG"
        ]
    },
    "PEI": {
        "name": "Mateca\u00f1a International Airport",
        "latitude": 4.8127,
        "longitude": -75.7395,
        "city": "Pereira",
        "international": true,
        "connections": [
            "BOG",
            "ADZ",
            "EOH"
        ]
    },
    "CUC": {
        "name": "Camilo Daza International Airport",
        "latitude": 7.9276,
        "longitude": -72.5115,
        "city": "C\u00facuta",
        "international": true,
        "connections": [
            "BOG",
            "MDE"
        ]
    },
    "AXM": {
        "name": "El Ed\u00e9n International Airport",
        "latitude": 4.4542,
        "longitude": -75.7664,
        "city": "Armenia",
        "international": true,
        "connections": [
            "BOG"
        ]
    },
    "LET": {
        "name": "Alfredo V\u00e1squez Cobo International Airport",
        "latitude": -3.318760334801997,
        "longitude": -69.87579376114384,
        "city": "Leticia",
        "international": true,
        "connections": [
            "BOG",
            "LPD"
        ]
    },
    "MTR": {
        "name": "Los Garzones Airport",
        "latitude": 8.8237,
        "longitude": -75.8258,
        "city": "Monter\u00eda",
        "international": false,
        "connections": [
            "BOG",
            "EOH"
        ]
    },
    "RCH": {
        "name": "Almirante Padilla Airport",
        "latitude": 11.5262,
        "longitude": -72.926,
        "city": "Riohacha",
        "international": false,
        "connections": [
            "BOG"
        ]
    },
    "APO": {
        "name": "Antonio Rold\u00e1n Betancourt Airport",
        "latitude": 7.811,
        "longitude": -76.7164,
        "city": "Apartad\u00f3",
        "international": false,
        "connections": [
            "BOG",
            "EOH"
        ]
    },
    "AUC": {
        "name": "Santiago P\u00e9rez Quiroz Airport",
        "latitude": 7.0689,
        "longitude": -70.7369,
        "city": "Arauca",
        "international": false,
        "connections": [
            "BOG"
        ]
    },
    "BSC": {
        "name": "Jos\u00e9 Celestino Mutis Airport",
        "latitude": 6.2028,
        "longitude": -77.3947,
        "city": "Bah\u00eda Solano",
        "international": false,
        "connections": [
            "EOH"
        ]
    },
    "EJA": {
        "name": "Yarigu\u00edes Airport",
        "latitude": 7.0243,
        "longitude": -73.8068,
        "city": "Barrancabermeja",
        "international": false,
        "connections": [
            "BOG"
        ]
    },
    "GYM": {
        "name": "Guaymaral Airport",
        "latitude": 4.812,
        "longitude": -74.056,
        "city": "Bogot\u00e1",
        "international": false,
        "connections": ["MDE"]
    },
    "CAQ": {
        "name": "Aeropuerto Juan H. White",
        "latitude": 7.9685,
        "longitude": -75.1985,
        "city": "Caucasia",
        "international": false,
        "connections": ["BOG"]
    },
    "FLA": {
        "name": "Aeropuerto Gustavo Artunduaga",
        "latitude": 1.5892,
        "longitude": -75.5644,
        "city": "Florencia",
        "international": false,
        "connections": [
            "BOG"
        ]
    },
    "GPI": {
        "name": "Aeropuerto Juan Casiano",
        "latitude": 2.5701,
        "longitude": -77.8986,
        "city": "Guapi",
        "international": false,
        "connections": [
            "CLO"
        ]
    },
    "IBE": {
        "name": "Aeropuerto Perales",
        "latitude": 4.4216,
        "longitude": -75.1333,
        "city": "Ibagu\u00e9",
        "international": false,
        "connections": [
            "BOG",
            "EOH"
        ]
    },
    "IPI": {
        "name": "Aeropuerto San Luis",
        "latitude": 0.8619,
        "longitude": -77.6718,
        "city": "Ipiales",
        "international": false,
        "connections": [
            "BOG"
        ]
    },
    "LMC": {
        "name": "Aeropuerto Javier Nore\u00f1a Valencia",
        "latitude": 2.1792,
        "longitude": -73.7872,
        "city": "La Chorrera",
        "international": false,
        "connections": ["BOG", "MDE"]
    },
    "MZL": {
        "name": "Aeropuerto La Nubia",
        "latitude": 5.0296,
        "longitude": -75.4647,
        "city": "Manizales",
        "international": false,
        "connections": [
            "BOG"
        ]
    },
    "EOH": {
        "name": "Aeropuerto Enrique Olaya Herrera",
        "latitude": 6.2205,
        "longitude": -75.5906,
        "city": "Medell\u00edn",
        "international": false,
        "connections": [
            "UIB",
            "MTR",
            "IBE",
            "BSC",
            "APO",
            "PEI",
            "BOG",
            "NQU"
        ]
    },
    "VGZ": {
        "name": "Aeropuerto de Villagarz\u00f3n",
        "latitude": 0.9788,
        "longitude": -76.6056,
        "city": "Villagarz\u00f3n",
        "international": false,
        "connections": [
            "BOG"
        ]
    },
    "LMN": {
        "name": "Aeropuerto Jorge Isaacs",
        "latitude": 11.233,
        "longitude": -72.49,
        "city": "Puerto Carre\u00f1o",
        "international": false,
        "connections": ["BOG", "MDE"]
    },
    "MVP": {
        "name": "Aeropuerto Fabio Alberto Le\u00f3n Bentley",
        "latitude": 1.2536,
        "longitude": -70.2339,
        "city": "Mit\u00fa",
        "international": false,
        "connections": [
            "BOG",
            "VVC"
        ]
    },
    "NVA": {
        "name": "Aeropuerto Benito Salas",
        "latitude": 2.95,
        "longitude": -75.294,
        "city": "Neiva",
        "international": false,
        "connections": [
            "BOG"
        ]
    },
    "NQU": {
        "name": "Aeropuerto Reyes Murillo",
        "latitude": 5.6961,
        "longitude": -77.2806,
        "city": "Nuqu\u00ed",
        "international": false,
        "connections": [
            "EOH"
        ]
    },
    "PSO": {
        "name": "Aeropuerto Antonio Nari\u00f1o",
        "latitude": 1.3962,
        "longitude": -77.2915,
        "city": "Pasto",
        "international": false,
        "connections": [
            "BOG",
            "CLO"
        ]
    },
    "PTX": {
        "name": "Aeropuerto Contador",
        "latitude": 1.8578,
        "longitude": -76.0857,
        "city": "Pitalito",
        "international": false,
        "connections": ["MDE"]
    },
    "PPN": {
        "name": "Aeropuerto Guillermo Le\u00f3n Valencia",
        "latitude": 2.4544,
        "longitude": -76.6093,
        "city": "Popay\u00e1n",
        "international": false,
        "connections": [
            "BOG"
        ]
    },
    "PVA": {
        "name": "Aeropuerto El Embrujo",
        "latitude": 13.3569,
        "longitude": -81.3583,
        "city": "Providencia",
        "international": false,
        "connections": [
            "ADZ"
        ]
    },
    "PUU": {
        "name": "Aeropuerto Tres de Mayo",
        "latitude": 0.5052,
        "longitude": -76.5008,
        "city": "Tumaco",
        "international": false,
        "connections": [
            "BOG",
            "LQM",
            "CLO"
        ]
    },
    "PGT": {
        "name": "Aeropuerto Morelia",
        "latitude": 4.3133,
        "longitude": -72.3844,
        "city": "Morelia",
        "international": false,
        "connections": ["BOG"]
    },
    "PDA": {
        "name": "Aeropuerto C\u00e9sar Gaviria Trujillo",
        "latitude": 3.8533,
        "longitude": -67.9062,
        "city": "In\u00edrida",
        "international": false,
        "connections": [
            "BOG",
            "VVC"
        ]
    },
    "LQM": {
        "name": "Aeropuerto Caucay\u00e1",
        "latitude": 0.1822,
        "longitude": -74.7708,
        "city": "Puerto Legu\u00edzamo",
        "international": false,
        "connections": [
            "PUU"
        ]
    },
    "PCR": {
        "name": "Aeropuerto Germ\u00e1n Olano",
        "latitude": 6.1847,
        "longitude": -67.4932,
        "city": "Puerto Carre\u00f1o",
        "international": false,
        "connections": [
            "BOG",
            "VVC",
            "PPP",
            "BBB"
        ]
    },
    "UIB": {
        "name": "Aeropuerto El Cara\u00f1o",
        "latitude": 5.6908,
        "longitude": -76.6412,
        "city": "Quibd\u00f3",
        "international": false,
        "connections": [
            "BOG",
            "CLO",
            "EOH"
        ]
    },
    "VVC": {
        "name": "Aeropuerto Vanguardia",
        "latitude": 4.1679,
        "longitude": -73.6138,
        "city": "Villavicencio",
        "international": false,
        "connections": [
            "BOG",
            "PCR",
            "PDA",
            "MVP"
        ]
    },
    "SJE": {
        "name": "Aeropuerto Jorge Enrique Gonz\u00e1lez Torres",
        "latitude": 2.5794,
        "longitude": -72.6394,
        "city": "San Jos\u00e9 del Guaviare",
        "international": false,
        "connections": [
            "BOG"
        ]
    },
    "LPD": {
        "name": "Aeropuerto La Pedrera",
        "latitude": -1.3255556,
        "longitude": -69.581389,
        "city": "La Pedrera",
        "international": false,
        "connections": [
            "LET"
        ]
    },
    "EYP": {
        "name": "Aeropuerto El Alcarav\u00e1n",
        "latitude": 5.3191,
        "longitude": -72.3844,
        "city": "Yopal",
        "international": false,
        "connections": [
            "BOG"
        ]
    },
    "TME": {
        "name": "Aeropuerto Los Colonos",
        "latitude": 3.82,
        "longitude": -70.2339,
        "city": "Puerto As\u00eds",
        "international": false,
        "connections": [
            "BOG",
            "RVE"
        ]
    },
    "SVI": {
        "name": "Aeropuerto Eduardo Falla Solano",
        "latitude": 2.15222,
        "longitude": -74.76639,
        "city": "San Vicente del Cagu\u00e1n",
        "international": false,
        "connections": [
            "BOG"
        ]
    },
    "VUP": {
        "name": "Aeropuerto Alfonso L\u00f3pez Pumarejo",
        "latitude": 10.4352,
        "longitude": -73.24897,
        "city": "Valledupar",
        "international": false,
        "connections": [
            "BOG"
        ]
    },
    "BUN": {
        "name": "Aeropuerto Gerardo Tobar L\u00f3pez",
        "latitude": 3.81963,
        "longitude": -76.9898,
        "city": "Buenaventura",
        "international": false,
        "connections": [
            "BOG"
        ]
    },
    "RVE": {
        "name": "Aeropuerto Los Colonizadores",
        "latitude": 6.9518,
        "longitude": -71.8572,
        "city": "Saravena",
        "international": false,
        "connections": [
            "BOG",
            "TME"
        ]
    },
    "CZU": {
        "name": "Aeropuerto Las Brujas",
        "latitude": 9.33274,
        "longitude": -75.2856,
        "city": "Corozal",
        "international": false,
        "connections": [
            "BOG"
        ]
    },
    "TCO": {
        "name": "Aeropuerto La Florida",
        "latitude": 1.8146,
        "longitude": -78.7492,
        "city": "Tumaco",
        "international": false,
        "connections": [
            "CLO"
        ]
    }
}