{
    "BOG": {
        "name": "El Dorado International Airport",
        "latitude": 4.7016,
        "longitude": -74.1469,
        "city": "Bogotá",
        "international": true,
        "connections": [
            "ADZ",
            "VGZ",
            "PCR",
            "LET",
            "SVI",
            "VVC",
            "EOH",
            "BGA",
            "EJA",
            "IBE",
            "PPN",
            "IPI",
            "CUC",
            "CTG",
            "CLO",
            "AXM",
            "UIB",
            "MTR",
            "PUU",
            "EYP",
            "APO",
            "VUP",
            "BAQ",
            "PSO",
            "RCH",
            "AUC",
            "BUN",
            "FLA",
            "NVA",
            "SJE",
            "MVP",
            "MZL",
            "RVE",
            "SMR",
            "MDE",
            "TME",
            "PEI",
            "CZU",
            "PDA"
        ]
    },
    "MDE": {
        "name": "José María Córdova International Airport",
        "latitude": 6.1645,
        "longitude": -75.4231,
        "city": "Medellín",
        "international": true,
        "connections": [
            "BGA",
            "CLO",
            "ADZ",
            "SMR",
            "BAQ",
            "BOG",
            "CUC",
            "CTG"
        ]
    },
    "CTG": {
        "name": "Rafael Núñez International Airport",
        "latitude": 10.4424,
        "longitude": -75.513,
        "city": "Cartagena",
        "international": true,
        "connections": [
            "BOG",
            "ADZ",
            "MDE",
            "CLO"
        ]
    },
    "CLO": {
        "name": "Alfonso Bonilla Aragón International Airport",
        "latitude": 3.5432,
        "longitude": -76.3816,
        "city": "Cali",
        "international": true,
        "connections": [
            "ADZ",
            "UIB",
            "PUU",
            "BAQ",
            "MDE",
            "PSO",
            "BOG",
            "TCO",
            "GPI",
            "CTG"
        ]
    },
    "BAQ": {
        "name": "Ernesto Cortissoz International Airport",
        "latitude": 10.8896,
        "longitude": -74.7808,
        "city": "Barranquilla",
        "international": true,
        "connections": [
            "BOG",
            "ADZ",
            "MDE",
            "CLO"
        ]
    },
    "BGA": {
        "name": "Palonegro International Airport",
        "latitude": 7.1265,
        "longitude": -73.1848,
        "city": "Bucaramanga",
        "international": true,
        "connections": [
            "BOG",
            "MDE"
        ]
    },
    "SMR": {
        "name": "Simón Bolívar International Airport",
        "latitude": 11.1196,
        "longitude": -74.2306,
        "city": "Santa Marta",
        "international": true,
        "connections": [
            "BOG",
            "MDE"
        ]
    },
    "ADZ": {
        "name": "Gustavo Rojas Pinilla International Airport",
        "latitude": 12.5836,
        "longitude": -81.7112,
        "city": "San Andrés",
        "international": true,
        "connections": [
            "CLO",
            "PVA",
            "MDE",
            "BAQ",
            "PEI",
            "BOG",
            "CTG"
        ]
    },
    "PEI": {
        "name": "Matecaña International Airport",
        "latitude": 4.8127,
        "longitude": -75.7395,
        "city": "Pereira",
        "international": true,
        "connections": [
            "BOG",
            "ADZ",
            "EOH"
        ]
    },
    "CUC": {
        "name": "Camilo Daza International Airport",
        "latitude": 7.9276,
        "longitude": -72.5115,
        "city": "Cúcuta",
        "international": true,
        "connections": [
            "BOG",
            "MDE"
        ]
    },
    "AXM": {
        "name": "El Edén International Airport",
        "latitude": 4.4542,
        "longitude": -75.7664,
        "city": "Armenia",
        "international": true,
        "connections": [
            "BOG"
        ]
    },
    "LET": {
        "name": "Alfredo Vásquez Cobo International Airport",
        "latitude": -3.318760334801997,
        "longitude": -69.87579376114384,
        "city": "Leticia",
        "international": true,
        "connections": [
            "BOG",
            "LPD"
        ]
    },
    "MTR": {
        "name": "Los Garzones Airport",
        "latitude": 8.8237,
        "longitude": -75.8258,
        "city": "Montería",
        "international": false,
        "connections": [
            "BOG",
            "EOH"
        ]
    },
    "RCH": {
        "name": "Almirante Padilla Airport",
        "latitude": 11.5262,
        "longitude": -72.926,
        "city": "Riohacha",
        "international": false,
        "connections": [
            "BOG"
        ]
    },
    "APO": {
        "name": "Antonio Roldán Betancourt Airport",
        "latitude": 7.811,
        "longitude": -76.7164,
        "city": "Apartadó",
        "international": false,
        "connections": [
            "BOG",
            "EOH"
        ]
    },
    "AUC": {
        "name": "Santiago Pérez Quiroz Airport",
        "latitude": 7.0689,
        "longitude": -70.7369,
        "city": "Arauca",
        "international": false,
        "connections": [
            "BOG"
        ]
    },
    "BSC": {
        "name": "José Celestino Mutis Airport",
        "latitude": 6.2028,
        "longitude": -77.3947,
        "city": "Bahía Solano",
        "international": false,
        "connections": [
            "EOH"
        ]
    },
    "EJA": {
        "name": "Yariguíes Airport",
        "latitude": 7.0243,
        "longitude": -73.8068,
        "city": "Barrancabermeja",
        "international": false,
        "connections": [
            "BOG"
        ]
    },
    "GYM": {
        "name": "Guaymaral Airport",
        "latitude": 4.812,
        "longitude": -74.056,
        "city": "Bogotá",
        "international": false,
        "connections": []
    },
    "CAQ": {
        "name": "Aeropuerto Juan H. White",
        "latitude": 7.9685,
        "longitude": -75.1985,
        "city": "Caucasia",
        "international": false,
        "connections": []
    },
    "FLA": {
        "name": "Aeropuerto Gustavo Artunduaga",
        "latitude": 1.5892,
        "longitude": -75.5644,
        "city": "Florencia",
        "international": false,
        "connections": [
            "BOG"
        ]
    },
    "GPI": {
        "name": "Aeropuerto Juan Casiano",
        "latitude": 2.5701,
        "longitude": -77.8986,
        "city": "Guapi",
        "international": false,
        "connections": [
            "CLO"
        ]
    },
    "IBE": {
        "name": "Aeropuerto Perales",
        "latitude": 4.4216,
        "longitude": -75.1333,
        "city": "Ibagué",
        "international": false,
        "connections": [
            "BOG",
            "EOH"
        ]
    },
    "IPI": {
        "name": "Aeropuerto San Luis",
        "latitude": 0.8619,
        "longitude": -77.6718,
        "city": "Ipiales",
        "international": false,
        "connections": [
            "BOG"
        ]
    },
    "LMC": {
        "name": "Aeropuerto Javier Noreña Valencia",
        "latitude": 2.1792,
        "longitude": -73.7872,
        "city": "La Chorrera",
        "international": false,
        "connections": []
    },
    "MZL": {
        "name": "Aeropuerto La Nubia",
        "latitude": 5.0296,
        "longitude": -75.4647,
        "city": "Manizales",
        "international": false,
        "connections": [
            "BOG"
        ]
    },
    "EOH": {
        "name": "Aeropuerto Enrique Olaya Herrera",
        "latitude": 6.2205,
        "longitude": -75.5906,
        "city": "Medellín",
        "international": false,
        "connections": [
            "UIB",
            "MTR",
            "IBE",
            "BSC",
            "APO",
            "PEI",
            "BOG",
            "NQU"
        ]
    },
    "VGZ": {
        "name": "Aeropuerto de Villagarzón",
        "latitude": 0.9788,
        "longitude": -76.6056,
        "city": "Villagarzón",
        "international": false,
        "connections": [
            "BOG"
        ]
    },
    "LMN": {
        "name": "Aeropuerto Jorge Isaacs",
        "latitude": 11.233,
        "longitude": -72.49,
        "city": "Puerto Carreño",
        "international": false,
        "connections": []
    },
    "MVP": {
        "name": "Aeropuerto Fabio Alberto León Bentley",
        "latitude": 1.2536,
        "longitude": -70.2339,
        "city": "Mitú",
        "international": false,
        "connections": [
            "BOG",
            "VVC"
        ]
    },
    "NVA": {
        "name": "Aeropuerto Benito Salas",
        "latitude": 2.95,
        "longitude": -75.294,
        "city": "Neiva",
        "international": false,
        "connections": [
            "BOG"
        ]
    },
    "NQU": {
        "name": "Aeropuerto Reyes Murillo",
        "latitude": 5.6961,
        "longitude": -77.2806,
        "city": "Nuquí",
        "international": false,
        "connections": [
            "EOH"
        ]
    },
    "PSO": {
        "name": "Aeropuerto Antonio Nariño",
        "latitude": 1.3962,
        "longitude": -77.2915,
        "city": "Pasto",
        "international": false,
        "connections": [
            "BOG",
            "CLO"
        ]
    },
    "PTX": {
        "name": "Aeropuerto Contador",
        "latitude": 1.8578,
        "longitude": -76.0857,
        "city": "Pitalito",
        "international": false,
        "connections": []
    },
    "PPN": {
        "name": "Aeropuerto Guillermo León Valencia",
        "latitude": 2.4544,
        "longitude": -76.6093,
        "city": "Popayán",
        "international": false,
        "connections": [
            "BOG"
        ]
    },
    "PVA": {
        "name": "Aeropuerto El Embrujo",
        "latitude": 13.3569,
        "longitude": -81.3583,
        "city": "Providencia",
        "international": false,
        "connections": [
            "ADZ"
        ]
    },
    "PUU": {
        "name": "Aeropuerto Tres de Mayo",
        "latitude": 0.5052,
        "longitude": -76.5008,
        "city": "Tumaco",
        "international": false,
        "connections": [
            "BOG",
            "LQM",
            "CLO"
        ]
    },
    "PGT": {
        "name": "Aeropuerto Morelia",
        "latitude": 4.3133,
        "longitude": -72.3844,
        "city": "Morelia",
        "international": false,
        "connections": []
    },
    "PDA": {
        "name": "Aeropuerto César Gaviria Trujillo",
        "latitude": 3.8533,
        "longitude": -67.9062,
        "city": "Inírida",
        "international": false,
        "connections": [
            "BOG",
            "VVC"
        ]
    },
    "LQM": {
        "name": "Aeropuerto Caucayá",
        "latitude": 0.1822,
        "longitude": -74.7708,
        "city": "Puerto Leguízamo",
        "international": false,
        "connections": [
            "PUU"
        ]
    },
    "PCR": {
        "name": "Aeropuerto Germán Olano",
        "latitude": 6.1847,
        "longitude": -67.4932,
        "city": "Puerto Carreño",
        "international": false,
        "connections": [
            "BOG",
            "VVC",
            "PPP",
            "BBB"
        ]
    },
    "UIB": {
        "name": "Aeropuerto El Caraño",
        "latitude": 5.6908,
        "longitude": -76.6412,
        "city": "Quibdó",
        "international": false,
        "connections": [
            "BOG",
            "CLO",
            "EOH"
        ]
    },
    "VVC": {
        "name": "Aeropuerto Vanguardia",
        "latitude": 4.1679,
        "longitude": -73.6138,
        "city": "Villavicencio",
        "international": false,
        "connections": [
            "BOG",
            "PCR",
            "PDA",
            "MVP"
        ]
    },
    "SJE": {
        "name": "Aeropuerto Jorge Enrique González Torres",
        "latitude": 2.5794,
        "longitude": -72.6394,
        "city": "San José del Guaviare",
        "international": false,
        "connections": [
            "BOG"
        ]
    },
    "LPD": {
        "name": "Aeropuerto La Pedrera",
        "latitude": -1.3255556,
        "longitude": -69.581389,
        "city": "La Pedrera",
        "international": false,
        "connections": [
            "LET"
        ]
    },
    "EYP": {
        "name": "Aeropuerto El Alcaraván",
        "latitude": 5.3191,
        "longitude": -72.3844,
        "city": "Yopal",
        "international": false,
        "connections": [
            "BOG"
        ]
    },
    "TME": {
        "name": "Aeropuerto Los Colonos",
        "latitude": 3.82,
        "longitude": -70.2339,
        "city": "Puerto Asís",
        "international": false,
        "connections": [
            "BOG",
            "RVE"
        ]
    },
    "SVI": {
        "name": "Aeropuerto Eduardo Falla Solano",
        "latitude": 2.15222,
        "longitude": -74.76639,
        "city": "San Vicente del Caguán",
        "international": false,
        "connections": [
            "BOG"
        ]
    },
    "VUP": {
        "name": "Aeropuerto Alfonso López Pumarejo",
        "latitude": 10.4352,
        "longitude": -73.24897,
        "city": "Valledupar",
        "international": false,
        "connections": [
            "BOG"
        ]
    },
    "BUN": {
        "name": "Aeropuerto Gerardo Tobar López",
        "latitude": 3.81963,
        "longitude": -76.9898,
        "city": "Buenaventura",
        "international": false,
        "connections": [
            "BOG"
        ]
    },
    "RVE": {
        "name": "Aeropuerto Los Colonizadores",
        "latitude": 6.9518,
        "longitude": -71.8572,
        "city": "Saravena",
        "international": false,
        "connections": [
            "BOG",
            "TME"
        ]
    },
    "CZU": {
        "name": "Aeropuerto Las Brujas",
        "latitude": 9.33274,
        "longitude": -75.2856,
        "city": "Corozal",
        "international": false,
        "connections": [
            "BOG"
        ]
    },
    "TCO": {
        "name": "Aeropuerto La Florida",
        "latitude": 1.8146,
        "longitude": -78.7492,
        "city": "Tumaco",
        "international": false,
        "connections": [
            "CLO"
        ]
    }
}